[{"id": "o_KvDfOLLlNKla4e7dwaTQ", "alias": "central-bbq-memphis-3", "name": "Central BBQ", "image_url": "https://s3-media1.fl.yelpcdn.com/bphoto/p3Y4iaJEsxMr7K9H_G9WUA/o.jpg", "is_closed": false, "url": "https://www.yelp.com/biz/central-bbq-memphis-3?adjust_creative=hfNVgV2lj1HFd1e19JpDfg&utm_campaign=yelp_api_v3&utm_medium=api_v3_business_search&utm_source=hfNVgV2lj1HFd1e19JpDfg", "review_count": 2314, "categories": [{"alias": "bbq", "title": "Barbeque"}, {"alias": "southern", "title": "Southern"}], "rating": 4.0, "coordinates": {"latitude": 35.13381, "longitude": -90.05716}, "transactions": ["delivery", "pickup"], "price": "$$", "location": {"address1": "147 E Butler Ave", "address2": "", "address3": "Downtown", "city": "Memphis", "zip_code": "38103", "country": "US", "state": "TN", "display_address": ["147 E Butler Ave", "Downtown", "Memphis, TN 38103"]}, "phone": "+19016727760", "display_phone": "(901) 672-7760", "distance": 2475.3609710972005}, {"id": "rB5uSDXgbj995hJ0wxZFmQ", "alias": "paynes-bar-b-que-memphis", "name": "Payne's Bar-B-Que", "image_url": "https://s3-media2.fl.yelpcdn.com/bphoto/MiYRNHGz4m-g4OiOtK3NWQ/o.jpg", "is_closed": false, "url": "https://www.yelp.com/biz/paynes-bar-b-que-memphis?adjust_creative=hfNVgV2lj1HFd1e19JpDfg&utm_campaign=yelp_api_v3&utm_medium=api_v3_business_search&utm_source=hfNVgV2lj1HFd1e19JpDfg", "review_count": 321, "categories": [{"alias": "bbq", "title": "Barbeque"}], "rating": 4.5, "coordinates": {"latitude": 35.11817, "longitude": -90.00306}, "transactions": ["delivery"], "price": "$", "location": {"address1": "1762 Lamar Ave", "address2": "", "address3": "", "city": "Memphis", "zip_code": "38114", "country": "US", "state": "TN", "display_address": ["1762 Lamar Ave", "Memphis, TN 38114"]}, "phone": "+19012721523", "display_phone": "(901) 272-1523", "distance": 2842.8879481675276}, {"id": "GgPbCwGC-wci0v_YDe7bbQ", "alias": "blues-city-cafe-memphis", "name": "Blues City Cafe", "image_url": "https://s3-media3.fl.yelpcdn.com/bphoto/7nAbbrqkwtaZOi9r2pG3Wg/o.jpg", "is_closed": false, "url": "https://www.yelp.com/biz/blues-city-cafe-memphis?adjust_creative=hfNVgV2lj1HFd1e19JpDfg&utm_campaign=yelp_api_v3&utm_medium=api_v3_business_search&utm_source=hfNVgV2lj1HFd1e19JpDfg", "review_count": 1729, "categories": [{"alias": "southern", "title": "Southern"}, {"alias": "bbq", "title": "Barbeque"}], "rating": 4.0, "coordinates": {"latitude": 35.1402, "longitude": -90.053379}, "transactions": ["delivery", "pickup"], "price": "$$", "location": {"address1": "138 Beale St", "address2": "", "address3": "", "city": "Memphis", "zip_code": "38103", "country": "US", "state": "TN", "display_address": ["138 Beale St", "Memphis, TN 38103"]}, "phone": "+19015263637", "display_phone": "(901) 526-3637", "distance": 2343.52368626846}, {"id": "RBc7QurYPiFXyu7w5-RzXw", "alias": "arnolds-bar-b-que-and-grill-memphis", "name": "Arnolds BAR-B-QUE & Grill", "image_url": "https://s3-media2.fl.yelpcdn.com/bphoto/eny1WB8Gu5_g9oQgocP7rQ/o.jpg", "is_closed": false, "url": "https://www.yelp.com/biz/arnolds-bar-b-que-and-grill-memphis?adjust_creative=hfNVgV2lj1HFd1e19JpDfg&utm_campaign=yelp_api_v3&utm_medium=api_v3_business_search&utm_source=hfNVgV2lj1HFd1e19JpDfg", "review_count": 165, "categories": [{"alias": "bbq", "title": "Barbeque"}, {"alias": "tradamerican", "title": "American (Traditional)"}], "rating": 4.5, "coordinates": {"latitude": 35.14292, "longitude": -90.04546}, "transactions": ["delivery"], "price": "$$", "location": {"address1": "337 Madison Ave", "address2": "Ste 2", "address3": null, "city": "Memphis", "zip_code": "38103", "country": "US", "state": "TN", "display_address": ["337 Madison Ave", "Ste 2", "Memphis, TN 38103"]}, "phone": "+19017300290", "display_phone": "(901) 730-0290", "distance": 1915.5977971973741}, {"id": "4kqhpPpyT3ZAAoy9cO8SoA", "alias": "charlie-vergos-rendezvous-memphis-3", "name": "Charlie Vergos' Rendezvous", "image_url": "https://s3-media3.fl.yelpcdn.com/bphoto/a4Ug5HZk1GOZyq_OE3Fn2g/o.jpg", "is_closed": false, "url": "https://www.yelp.com/biz/charlie-vergos-rendezvous-memphis-3?adjust_creative=hfNVgV2lj1HFd1e19JpDfg&utm_campaign=yelp_api_v3&utm_medium=api_v3_business_search&utm_source=hfNVgV2lj1HFd1e19JpDfg", "review_count": 2587, "categories": [{"alias": "bbq", "title": "Barbeque"}, {"alias": "tradamerican", "title": "American (Traditional)"}, {"alias": "beerbar", "title": "Beer Bar"}], "rating": 3.5, "coordinates": {"latitude": 35.1433447203971, "longitude": -90.0515894209675}, "transactions": ["delivery", "pickup"], "price": "$$", "location": {"address1": "52 S 2nd St", "address2": "", "address3": "", "city": "Memphis", "zip_code": "38103", "country": "US", "state": "TN", "display_address": ["52 S 2nd St", "Memphis, TN 38103"]}, "phone": "+19015232746", "display_phone": "(901) 523-2746", "distance": 2381.8310213820964}, {"id": "Quqz77SOKhOMzo9spOLAKg", "alias": "cozy-corner-restaurant-memphis-2", "name": "Cozy Corner Restaurant", "image_url": "https://s3-media1.fl.yelpcdn.com/bphoto/akFKsnvT7RhykIqv3B9rkA/o.jpg", "is_closed": false, "url": "https://www.yelp.com/biz/cozy-corner-restaurant-memphis-2?adjust_creative=hfNVgV2lj1HFd1e19JpDfg&utm_campaign=yelp_api_v3&utm_medium=api_v3_business_search&utm_source=hfNVgV2lj1HFd1e19JpDfg", "review_count": 371, "categories": [{"alias": "bbq", "title": "Barbeque"}], "rating": 4.5, "coordinates": {"latitude": 35.155188, "longitude": -90.034244}, "transactions": ["pickup"], "price": "$$", "location": {"address1": "735 N Pkwy", "address2": "", "address3": "", "city": "Memphis", "zip_code": "38105", "country": "US", "state": "TN", "display_address": ["735 N Pkwy", "Memphis, TN 38105"]}, "phone": "+19015279158", "display_phone": "(901) 527-9158", "distance": 2718.15301714037}, {"id": "mGufQb1dzGkznQoOhTaSAw", "alias": "guss-world-famous-fried-chicken-memphis-3", "name": "Gus's World Famous Fried Chicken", "image_url": "https://s3-media4.fl.yelpcdn.com/bphoto/5maN7c0PWz1YEKXJpU1hvQ/o.jpg", "is_closed": false, "url": "https://www.yelp.com/biz/guss-world-famous-fried-chicken-memphis-3?adjust_creative=hfNVgV2lj1HFd1e19JpDfg&utm_campaign=yelp_api_v3&utm_medium=api_v3_business_search&utm_source=hfNVgV2lj1HFd1e19JpDfg", "review_count": 3275, "categories": [{"alias": "southern", "title": "Southern"}, {"alias": "chickenshop", "title": "Chicken Shop"}, {"alias": "comfortfood", "title": "Comfort Food"}], "rating": 4.5, "coordinates": {"latitude": 35.1381607055664, "longitude": -90.0576324462891}, "transactions": ["delivery"], "price": "$$", "location": {"address1": "310 S Front St", "address2": "", "address3": "", "city": "Memphis", "zip_code": "38103", "country": "US", "state": "TN", "display_address": ["310 S Front St", "Memphis, TN 38103"]}, "phone": "+19015274877", "display_phone": "(901) 527-4877", "distance": 2634.660448821978}, {"id": "453QJP9zGHDO3PHrAKvG3Q", "alias": "ball-hoggerz-bbq-memphis", "name": "Ball Hoggerz BBQ", "image_url": "https://s3-media1.fl.yelpcdn.com/bphoto/LW393U3H0aI0F91ge1c8SQ/o.jpg", "is_closed": false, "url": "https://www.yelp.com/biz/ball-hoggerz-bbq-memphis?adjust_creative=hfNVgV2lj1HFd1e19JpDfg&utm_campaign=yelp_api_v3&utm_medium=api_v3_business_search&utm_source=hfNVgV2lj1HFd1e19JpDfg", "review_count": 76, "categories": [{"alias": "chicken_wings", "title": "Chicken Wings"}, {"alias": "bbq", "title": "Barbeque"}, {"alias": "sandwiches", "title": "Sandwiches"}], "rating": 4.5, "coordinates": {"latitude": 35.1072196384082, "longitude": -89.9847539886832}, "transactions": ["delivery", "pickup"], "location": {"address1": "1404 Airways Blvd", "address2": "", "address3": null, "city": "Memphis", "zip_code": "38114", "country": "US", "state": "TN", "display_address": ["1404 Airways Blvd", "Memphis, TN 38114"]}, "phone": "+19012791758", "display_phone": "(901) 279-1758", "distance": 4905.805436150044}, {"id": "gA5rLyH01377m_EP6dfb0A", "alias": "mcewens-memphis-memphis", "name": "McEwen's Memphis", "image_url": "https://s3-media3.fl.yelpcdn.com/bphoto/kHqA953o_gKrfuJ46jlYPA/o.jpg", "is_closed": false, "url": "https://www.yelp.com/biz/mcewens-memphis-memphis?adjust_creative=hfNVgV2lj1HFd1e19JpDfg&utm_campaign=yelp_api_v3&utm_medium=api_v3_business_search&utm_source=hfNVgV2lj1HFd1e19JpDfg", "review_count": 531, "categories": [{"alias": "southern", "title": "Southern"}, {"alias": "newamerican", "title": "American (New)"}], "rating": 4.5, "coordinates": {"latitude": 35.144163, "longitude": -90.052328}, "transactions": ["delivery"], "price": "$$$", "location": {"address1": "120 Monroe Ave", "address2": "", "address3": "", "city": "Memphis", "zip_code": "38103", "country": "US", "state": "TN", "display_address": ["120 Monroe Ave", "Memphis, TN 38103"]}, "phone": "+19015277085", "display_phone": "(901) 527-7085", "distance": 2489.467005338627}, {"id": "RdBYD7CyZ4436wNGV_--Ag", "alias": "elwoods-shack-memphis", "name": "Elwood's Shack", "image_url": "https://s3-media3.fl.yelpcdn.com/bphoto/5_bKEx4JnRuo7qCEb14Dlw/o.jpg", "is_closed": false, "url": "https://www.yelp.com/biz/elwoods-shack-memphis?adjust_creative=hfNVgV2lj1HFd1e19JpDfg&utm_campaign=yelp_api_v3&utm_medium=api_v3_business_search&utm_source=hfNVgV2lj1HFd1e19JpDfg", "review_count": 961, "categories": [{"alias": "tradamerican", "title": "American (Traditional)"}, {"alias": "breakfast_brunch", "title": "Breakfast & Brunch"}, {"alias": "tacos", "title": "Tacos"}], "rating": 4.5, "coordinates": {"latitude": 35.148194641687, "longitude": -89.9098482435165}, "transactions": ["delivery"], "price": "$$", "location": {"address1": "4523 Summer Ave", "address2": "", "address3": "", "city": "Memphis", "zip_code": "38122", "country": "US", "state": "TN", "display_address": ["4523 Summer Ave", "Memphis, TN 38122"]}, "phone": "+19017619898", "display_phone": "(901) 761-9898", "distance": 11111.080300627687}, {"id": "bvT2AkHjTYYMPCsSB0FSsQ", "alias": "the-bar-b-q-shop-memphis-6", "name": "The Bar-B-Q Shop", "image_url": "https://s3-media2.fl.yelpcdn.com/bphoto/RFw7sllXh0PRgkWDRNzMmA/o.jpg", "is_closed": false, "url": "https://www.yelp.com/biz/the-bar-b-q-shop-memphis-6?adjust_creative=hfNVgV2lj1HFd1e19JpDfg&utm_campaign=yelp_api_v3&utm_medium=api_v3_business_search&utm_source=hfNVgV2lj1HFd1e19JpDfg", "review_count": 777, "categories": [{"alias": "bbq", "title": "Barbeque"}], "rating": 4.0, "coordinates": {"latitude": 35.1381031605355, "longitude": -90.0017285337295}, "transactions": ["delivery", "pickup"], "price": "$$", "location": {"address1": "1782 Madison Ave", "address2": "", "address3": "", "city": "Memphis", "zip_code": "38104", "country": "US", "state": "TN", "display_address": ["1782 Madison Ave", "Memphis, TN 38104"]}, "phone": "+19012721277", "display_phone": "(901) 272-1277", "distance": 2709.0335560899475}, {"id": "yt6pZNEBqhQFadYV1-p8Vw", "alias": "b-b-kings-blues-club-memphis-5", "name": "B.B. King's Blues Club", "image_url": "https://s3-media1.fl.yelpcdn.com/bphoto/OMS_D3Z4ZJbuC9gH9Zhp_w/o.jpg", "is_closed": false, "url": "https://www.yelp.com/biz/b-b-kings-blues-club-memphis-5?adjust_creative=hfNVgV2lj1HFd1e19JpDfg&utm_campaign=yelp_api_v3&utm_medium=api_v3_business_search&utm_source=hfNVgV2lj1HFd1e19JpDfg", "review_count": 1227, "categories": [{"alias": "jazzandblues", "title": "Jazz & Blues"}, {"alias": "theater", "title": "Performing Arts"}, {"alias": "bbq", "title": "Barbeque"}], "rating": 4.0, "coordinates": {"latitude": 35.1397353, "longitude": -90.0535116}, "transactions": ["delivery"], "price": "$$", "location": {"address1": "143 Beale St", "address2": "", "address3": "", "city": "Memphis", "zip_code": "38103", "country": "US", "state": "TN", "display_address": ["143 Beale St", "Memphis, TN 38103"]}, "phone": "+19015245464", "display_phone": "(901) 524-5464", "distance": 2332.303649635193}, {"id": "cb-tKbVqHQWA-AsZsEvQbw", "alias": "bain-barbecue-and-bakery-memphis", "name": "Bain Barbecue and Bakery", "image_url": "https://s3-media2.fl.yelpcdn.com/bphoto/DRXsTK5HOs7UQvDjicDFBA/o.jpg", "is_closed": false, "url": "https://www.yelp.com/biz/bain-barbecue-and-bakery-memphis?adjust_creative=hfNVgV2lj1HFd1e19JpDfg&utm_campaign=yelp_api_v3&utm_medium=api_v3_business_search&utm_source=hfNVgV2lj1HFd1e19JpDfg", "review_count": 76, "categories": [{"alias": "bbq", "title": "Barbeque"}, {"alias": "bakeries", "title": "Bakeries"}, {"alias": "breakfast_brunch", "title": "Breakfast & Brunch"}], "rating": 4.5, "coordinates": {"latitude": 35.1185089, "longitude": -89.99143101564341}, "transactions": ["delivery", "pickup"], "location": {"address1": "993 S Cooper St", "address2": null, "address3": "", "city": "Memphis", "zip_code": "38104", "country": "US", "state": "TN", "display_address": ["993 S Cooper St", "Memphis, TN 38104"]}, "phone": "+19013104141", "display_phone": "(901) 310-4141", "distance": 3789.288779912915}, {"id": "2ICfKelRHplSOOeBBF5XPw", "alias": "central-bbq-memphis-2", "name": "Central BBQ", "image_url": "https://s3-media2.fl.yelpcdn.com/bphoto/oXQWKIhTmTYuTCJQj6Eg6g/o.jpg", "is_closed": false, "url": "https://www.yelp.com/biz/central-bbq-memphis-2?adjust_creative=hfNVgV2lj1HFd1e19JpDfg&utm_campaign=yelp_api_v3&utm_medium=api_v3_business_search&utm_source=hfNVgV2lj1HFd1e19JpDfg", "review_count": 1727, "categories": [{"alias": "bbq", "title": "Barbeque"}], "rating": 4.0, "coordinates": {"latitude": 35.12581, "longitude": -89.987066}, "transactions": ["delivery", "pickup"], "price": "$$", "location": {"address1": "2249 Central Ave", "address2": "", "address3": "", "city": "Memphis", "zip_code": "38104", "country": "US", "state": "TN", "display_address": ["2249 Central Ave", "Memphis, TN 38104"]}, "phone": "+19012729377", "display_phone": "(901) 272-9377", "distance": 3965.5024520018037}, {"id": "ycYpPnhEoC2aVlrAfmueDQ", "alias": "big-bills-bar-be-que-memphis", "name": "Big Bill's Bar-Be-Que", "image_url": "https://s3-media2.fl.yelpcdn.com/bphoto/_gUBES52kcKMVEE3v3DVow/o.jpg", "is_closed": false, "url": "https://www.yelp.com/biz/big-bills-bar-be-que-memphis?adjust_creative=hfNVgV2lj1HFd1e19JpDfg&utm_campaign=yelp_api_v3&utm_medium=api_v3_business_search&utm_source=hfNVgV2lj1HFd1e19JpDfg", "review_count": 55, "categories": [{"alias": "bbq", "title": "Barbeque"}], "rating": 4.0, "coordinates": {"latitude": 35.070836, "longitude": -89.844}, "transactions": ["delivery"], "price": "$$", "location": {"address1": "2857 Kirby Rd", "address2": "Ste 119", "address3": "", "city": "Memphis", "zip_code": "38119", "country": "US", "state": "TN", "display_address": ["2857 Kirby Rd", "Ste 119", "Memphis, TN 38119"]}, "phone": "+19015297798", "display_phone": "(901) 529-7798", "distance": 18215.167182239624}, {"id": "Z9S7toibIcZS8OaOBLJclA", "alias": "mommas-memphis", "name": "Momma's", "image_url": "https://s3-media1.fl.yelpcdn.com/bphoto/OmFIgZ6jkoUCU-geg8_YwQ/o.jpg", "is_closed": false, "url": "https://www.yelp.com/biz/mommas-memphis?adjust_creative=hfNVgV2lj1HFd1e19JpDfg&utm_campaign=yelp_api_v3&utm_medium=api_v3_business_search&utm_source=hfNVgV2lj1HFd1e19JpDfg", "review_count": 27, "categories": [{"alias": "divebars", "title": "Dive Bars"}, {"alias": "burgers", "title": "Burgers"}], "rating": 4.5, "coordinates": {"latitude": 35.12434, "longitude": -90.06383}, "transactions": [], "location": {"address1": "855 Kentucky St", "address2": "", "address3": null, "city": "Memphis", "zip_code": "38106", "country": "US", "state": "TN", "display_address": ["855 Kentucky St", "Memphis, TN 38106"]}, "phone": "+19012075111", "display_phone": "(901) 207-5111", "distance": 3147.117683883901}, {"id": "cNS5qXNgQf6T5PxEaevhZg", "alias": "corkys-ribs-and-bbq-memphis-2", "name": "Corky's Ribs & BBQ", "image_url": "https://s3-media2.fl.yelpcdn.com/bphoto/2hMKCpDjoQ0XJTPxFnAIvw/o.jpg", "is_closed": false, "url": "https://www.yelp.com/biz/corkys-ribs-and-bbq-memphis-2?adjust_creative=hfNVgV2lj1HFd1e19JpDfg&utm_campaign=yelp_api_v3&utm_medium=api_v3_business_search&utm_source=hfNVgV2lj1HFd1e19JpDfg", "review_count": 1055, "categories": [{"alias": "bbq", "title": "Barbeque"}], "rating": 4.0, "coordinates": {"latitude": 35.10799406050424, "longitude": -89.88664236149032}, "transactions": ["delivery", "pickup"], "price": "$$", "location": {"address1": "5259 Poplar Ave", "address2": "", "address3": "", "city": "Memphis", "zip_code": "38119", "country": "US", "state": "TN", "display_address": ["5259 Poplar Ave", "Memphis, TN 38119"]}, "phone": "+19016859744", "display_phone": "(901) 685-9744", "distance": 13305.516775480655}, {"id": "J7YN83J4KeRr1-Y_aO0o1g", "alias": "smoky-city-bbq-memphis", "name": "Smoky City BBQ", "image_url": "https://s3-media2.fl.yelpcdn.com/bphoto/PR-iAmLdWbMoY-6ntCMgvQ/o.jpg", "is_closed": false, "url": "https://www.yelp.com/biz/smoky-city-bbq-memphis?adjust_creative=hfNVgV2lj1HFd1e19JpDfg&utm_campaign=yelp_api_v3&utm_medium=api_v3_business_search&utm_source=hfNVgV2lj1HFd1e19JpDfg", "review_count": 7, "categories": [{"alias": "bbq", "title": "Barbeque"}, {"alias": "diners", "title": "Diners"}, {"alias": "cheesesteaks", "title": "Cheesesteaks"}], "rating": 4.5, "coordinates": {"latitude": 35.1571722456979, "longitude": -90.024502356133}, "transactions": ["delivery"], "location": {"address1": "1023 Jackson Ave", "address2": "", "address3": null, "city": "Memphis", "zip_code": "38107", "country": "US", "state": "TN", "display_address": ["1023 Jackson Ave", "Memphis, TN 38107"]}, "phone": "+19014253115", "display_phone": "(901) 425-3115", "distance": 2959.849335170297}, {"id": "iICRbJuwFuEHlcc2hcbcaw", "alias": "central-bbq-memphis-6", "name": "Central BBQ", "image_url": "https://s3-media1.fl.yelpcdn.com/bphoto/nHaKZM8Z2C6GF576QQMEsA/o.jpg", "is_closed": false, "url": "https://www.yelp.com/biz/central-bbq-memphis-6?adjust_creative=hfNVgV2lj1HFd1e19JpDfg&utm_campaign=yelp_api_v3&utm_medium=api_v3_business_search&utm_source=hfNVgV2lj1HFd1e19JpDfg", "review_count": 260, "categories": [{"alias": "bbq", "title": "Barbeque"}], "rating": 3.5, "coordinates": {"latitude": 35.10099, "longitude": -89.85697}, "transactions": ["delivery"], "price": "$$", "location": {"address1": "6201 Poplar Ave", "address2": null, "address3": "", "city": "Memphis", "zip_code": "38119", "country": "US", "state": "TN", "display_address": ["6201 Poplar Ave", "Memphis, TN 38119"]}, "phone": "+19014177962", "display_phone": "(901) 417-7962", "distance": 16098.003509862212}, {"id": "v_sQdba66wX28kqllmjKPw", "alias": "interstate-barbecue-memphis", "name": "Interstate Barbecue", "image_url": "https://s3-media3.fl.yelpcdn.com/bphoto/NmWWC-Cj3aFQQaQt5t9EvA/o.jpg", "is_closed": false, "url": "https://www.yelp.com/biz/interstate-barbecue-memphis?adjust_creative=hfNVgV2lj1HFd1e19JpDfg&utm_campaign=yelp_api_v3&utm_medium=api_v3_business_search&utm_source=hfNVgV2lj1HFd1e19JpDfg", "review_count": 392, "categories": [{"alias": "bbq", "title": "Barbeque"}], "rating": 3.0, "coordinates": {"latitude": 35.0851037353277, "longitude": -90.0570049881935}, "transactions": ["delivery", "pickup"], "price": "$$", "location": {"address1": "2265 S 3rd St", "address2": "", "address3": "", "city": "Memphis", "zip_code": "38109", "country": "US", "state": "TN", "display_address": ["2265 S 3rd St", "Memphis, TN 38109"]}, "phone": "+19017752304", "display_phone": "(901) 775-2304", "distance": 5621.088790599733}, {"id": "hKjildswiEEz7ICuRmAMwg", "alias": "williams-bar-b-q-west-memphis", "name": "William's Bar-B Q", "image_url": "https://s3-media2.fl.yelpcdn.com/bphoto/jFcoJSx7tbRyKDqiwzkHjw/o.jpg", "is_closed": false, "url": "https://www.yelp.com/biz/williams-bar-b-q-west-memphis?adjust_creative=hfNVgV2lj1HFd1e19JpDfg&utm_campaign=yelp_api_v3&utm_medium=api_v3_business_search&utm_source=hfNVgV2lj1HFd1e19JpDfg", "review_count": 89, "categories": [{"alias": "bbq", "title": "Barbeque"}], "rating": 4.5, "coordinates": {"latitude": 35.14576, "longitude": -90.16731}, "transactions": [], "price": "$", "location": {"address1": "106 S 14th St", "address2": "", "address3": "", "city": "West Memphis", "zip_code": "72301", "country": "US", "state": "AR", "display_address": ["106 S 14th St", "West Memphis, AR 72301"]}, "phone": "+18707350979", "display_phone": "(870) 735-0979", "distance": 12573.330081347913}, {"id": "sdj1gbH98pk3LZq6jh4SJg", "alias": "guss-world-famous-fried-chicken-memphis-2", "name": "Gus's World Famous Fried Chicken", "image_url": "https://s3-media3.fl.yelpcdn.com/bphoto/8_lvc5S06bnag_BrFBGJ2g/o.jpg", "is_closed": false, "url": "https://www.yelp.com/biz/guss-world-famous-fried-chicken-memphis-2?adjust_creative=hfNVgV2lj1HFd1e19JpDfg&utm_campaign=yelp_api_v3&utm_medium=api_v3_business_search&utm_source=hfNVgV2lj1HFd1e19JpDfg", "review_count": 805, "categories": [{"alias": "southern", "title": "Southern"}, {"alias": "chickenshop", "title": "Chicken Shop"}, {"alias": "comfortfood", "title": "Comfort Food"}], "rating": 4.5, "coordinates": {"latitude": 35.11099, "longitude": -89.8954399}, "transactions": ["delivery"], "price": "$$", "location": {"address1": "730 S Mendenhall Rd", "address2": "", "address3": "", "city": "Memphis", "zip_code": "38117", "country": "US", "state": "TN", "display_address": ["730 S Mendenhall Rd", "Memphis, TN 38117"]}, "phone": "+19017672323", "display_phone": "(901) 767-2323", "distance": 12456.04586471647}, {"id": "5-hO0FhUuOeeiAbGMyxCGA", "alias": "memphis-barbecue-company-horn-lake-2", "name": "Memphis Barbecue", "image_url": "https://s3-media3.fl.yelpcdn.com/bphoto/tstkZnVHkNLceNkHvc1dtQ/o.jpg", "is_closed": false, "url": "https://www.yelp.com/biz/memphis-barbecue-company-horn-lake-2?adjust_creative=hfNVgV2lj1HFd1e19JpDfg&utm_campaign=yelp_api_v3&utm_medium=api_v3_business_search&utm_source=hfNVgV2lj1HFd1e19JpDfg", "review_count": 1021, "categories": [{"alias": "bbq", "title": "Barbeque"}, {"alias": "tradamerican", "title": "American (Traditional)"}, {"alias": "beerbar", "title": "Beer Bar"}], "rating": 4.0, "coordinates": {"latitude": 34.96332, "longitude": -90.00237}, "transactions": ["pickup", "delivery"], "price": "$$", "location": {"address1": "709 Desoto Cv", "address2": "", "address3": "", "city": "Horn Lake", "zip_code": "38637", "country": "US", "state": "MS", "display_address": ["709 Desoto Cv", "Horn Lake, MS 38637"]}, "phone": "+16625363762", "display_phone": "(662) 536-3762", "distance": 18817.353982616325}, {"id": "-9peVEeIhs3Yw9znJ85L3w", "alias": "south-of-beale-memphis-6", "name": "South of Beale", "image_url": "https://s3-media2.fl.yelpcdn.com/bphoto/hf1nXeWZYVEWiNnWe3P4uQ/o.jpg", "is_closed": false, "url": "https://www.yelp.com/biz/south-of-beale-memphis-6?adjust_creative=hfNVgV2lj1HFd1e19JpDfg&utm_campaign=yelp_api_v3&utm_medium=api_v3_business_search&utm_source=hfNVgV2lj1HFd1e19JpDfg", "review_count": 614, "categories": [{"alias": "gastropubs", "title": "Gastropubs"}, {"alias": "newamerican", "title": "American (New)"}], "rating": 4.0, "coordinates": {"latitude": 35.136948, "longitude": -90.057556}, "transactions": ["delivery"], "price": "$$", "location": {"address1": "345 S Main", "address2": "Ste 101", "address3": "", "city": "Memphis", "zip_code": "38103", "country": "US", "state": "TN", "display_address": ["345 S Main", "Ste 101", "Memphis, TN 38103"]}, "phone": "+19013702144", "display_phone": "(901) 370-2144", "distance": 2573.6703013093233}, {"id": "8efo7nfoueJiH-iCvmXGZA", "alias": "itta-bena-memphis", "name": "Itta Bena", "image_url": "https://s3-media3.fl.yelpcdn.com/bphoto/EEnlitfswECh05B88Nrumg/o.jpg", "is_closed": false, "url": "https://www.yelp.com/biz/itta-bena-memphis?adjust_creative=hfNVgV2lj1HFd1e19JpDfg&utm_campaign=yelp_api_v3&utm_medium=api_v3_business_search&utm_source=hfNVgV2lj1HFd1e19JpDfg", "review_count": 432, "categories": [{"alias": "southern", "title": "Southern"}, {"alias": "venues", "title": "Venues & Event Spaces"}, {"alias": "bars", "title": "Bars"}], "rating": 4.5, "coordinates": {"latitude": 35.1398773872592, "longitude": -90.0533938843252}, "transactions": ["delivery"], "price": "$$$", "location": {"address1": "145 Beale St", "address2": "", "address3": "", "city": "Memphis", "zip_code": "38103", "country": "US", "state": "TN", "display_address": ["145 Beale St", "Memphis, TN 38103"]}, "phone": "+19015783031", "display_phone": "(901) 578-3031", "distance": 2329.2592188487342}, {"id": "GmS75Hm3C3hnj9qnat5Emw", "alias": "elvis-presleys-memphis-memphis-2", "name": "Elvis Presley's Memphis", "image_url": "https://s3-media3.fl.yelpcdn.com/bphoto/-z2qk_fh4lQKxxjxpaPLPQ/o.jpg", "is_closed": false, "url": "https://www.yelp.com/biz/elvis-presleys-memphis-memphis-2?adjust_creative=hfNVgV2lj1HFd1e19JpDfg&utm_campaign=yelp_api_v3&utm_medium=api_v3_business_search&utm_source=hfNVgV2lj1HFd1e19JpDfg", "review_count": 4, "categories": [{"alias": "southern", "title": "Southern"}, {"alias": "bbq", "title": "Barbeque"}, {"alias": "arts", "title": "Arts & Entertainment"}], "rating": 4.5, "coordinates": {"latitude": 35.1404, "longitude": -90.0537}, "transactions": [], "price": "$$$", "location": {"address1": "126 Beale St", "address2": null, "address3": null, "city": "Memphis", "zip_code": "38103", "country": "US", "state": "TN", "display_address": ["126 Beale St", "Memphis, TN 38103"]}, "phone": "", "display_phone": "", "distance": 2379.51480959507}, {"id": "kh2ZfwZ9hnMltEC0cBl-4A", "alias": "a-and-r-bar-b-que-memphis-3", "name": "A&R Bar-B-Que", "image_url": "https://s3-media2.fl.yelpcdn.com/bphoto/4LGM7Q3aaVLYnhVbWOnsHw/o.jpg", "is_closed": false, "url": "https://www.yelp.com/biz/a-and-r-bar-b-que-memphis-3?adjust_creative=hfNVgV2lj1HFd1e19JpDfg&utm_campaign=yelp_api_v3&utm_medium=api_v3_business_search&utm_source=hfNVgV2lj1HFd1e19JpDfg", "review_count": 131, "categories": [{"alias": "bbq", "title": "Barbeque"}, {"alias": "sandwiches", "title": "Sandwiches"}, {"alias": "burgers", "title": "Burgers"}], "rating": 4.0, "coordinates": {"latitude": 35.095953, "longitude": -90.0176613}, "transactions": ["delivery"], "price": "$$", "location": {"address1": "1802 Elvis Presley Blvd", "address2": "", "address3": "", "city": "Memphis", "zip_code": "38106", "country": "US", "state": "TN", "display_address": ["1802 Elvis Presley Blvd", "Memphis, TN 38106"]}, "phone": "+19017747444", "display_phone": "(901) 774-7444", "distance": 4057.233266687857}, {"id": "GJNIbdOtv6uOvgUW2OWJkA", "alias": "hernando-s-hide-a-way-memphis", "name": "Hernando\u2019s Hide-A-Way", "image_url": "https://s3-media3.fl.yelpcdn.com/bphoto/52VpYYj4xUc2XoTj0r-tjg/o.jpg", "is_closed": false, "url": "https://www.yelp.com/biz/hernando-s-hide-a-way-memphis?adjust_creative=hfNVgV2lj1HFd1e19JpDfg&utm_campaign=yelp_api_v3&utm_medium=api_v3_business_search&utm_source=hfNVgV2lj1HFd1e19JpDfg", "review_count": 31, "categories": [{"alias": "newamerican", "title": "American (New)"}, {"alias": "musicvenues", "title": "Music Venues"}], "rating": 5.0, "coordinates": {"latitude": 35.061149, "longitude": -90.024474}, "transactions": [], "location": {"address1": "3210 Old Hernando Rd", "address2": null, "address3": "", "city": "Memphis", "zip_code": "38116", "country": "US", "state": "TN", "display_address": ["3210 Old Hernando Rd", "Memphis, TN 38116"]}, "phone": "+19015092352", "display_phone": "(901) 509-2352", "distance": 7788.0513605563265}, {"id": "emNsRWLRL060GZc-z3_mrA", "alias": "central-bbq-memphis", "name": "Central BBQ", "image_url": "https://s3-media3.fl.yelpcdn.com/bphoto/BxijJVth2xVSDAQiZOKSMg/o.jpg", "is_closed": false, "url": "https://www.yelp.com/biz/central-bbq-memphis?adjust_creative=hfNVgV2lj1HFd1e19JpDfg&utm_campaign=yelp_api_v3&utm_medium=api_v3_business_search&utm_source=hfNVgV2lj1HFd1e19JpDfg", "review_count": 293, "categories": [{"alias": "bbq", "title": "Barbeque"}], "rating": 3.5, "coordinates": {"latitude": 35.1483871, "longitude": -89.91507133224155}, "transactions": ["pickup", "delivery"], "price": "$$", "location": {"address1": "4375 Summer Ave", "address2": "", "address3": "", "city": "Memphis", "zip_code": "38122", "country": "US", "state": "TN", "display_address": ["4375 Summer Ave", "Memphis, TN 38122"]}, "phone": "+19017674672", "display_phone": "(901) 767-4672", "distance": 10647.433607009363}, {"id": "XSnEBCn_wlkfSLNKr5dT_Q", "alias": "memphis-whistle-memphis", "name": "Memphis Whistle", "image_url": "https://s3-media1.fl.yelpcdn.com/bphoto/kPtMt8z7z31Lkv60t-C8vw/o.jpg", "is_closed": false, "url": "https://www.yelp.com/biz/memphis-whistle-memphis?adjust_creative=hfNVgV2lj1HFd1e19JpDfg&utm_campaign=yelp_api_v3&utm_medium=api_v3_business_search&utm_source=hfNVgV2lj1HFd1e19JpDfg", "review_count": 19, "categories": [{"alias": "cocktailbars", "title": "Cocktail Bars"}, {"alias": "tradamerican", "title": "American (Traditional)"}], "rating": 4.5, "coordinates": {"latitude": 35.11932, "longitude": -89.98566}, "transactions": ["delivery"], "location": {"address1": "2299 Young Ave", "address2": "", "address3": null, "city": "Memphis", "zip_code": "38104", "country": "US", "state": "TN", "display_address": ["2299 Young Ave", "Memphis, TN 38104"]}, "phone": "+19012367136", "display_phone": "(901) 236-7136", "distance": 4250.443668828917}, {"id": "hoem_ACiPXV_7__xydMC1w", "alias": "tops-bar-b-q-memphis", "name": "Tops Bar-B-Q", "image_url": "https://s3-media3.fl.yelpcdn.com/bphoto/O8y3YYl2Ufp6LJCyktOXbw/o.jpg", "is_closed": false, "url": "https://www.yelp.com/biz/tops-bar-b-q-memphis?adjust_creative=hfNVgV2lj1HFd1e19JpDfg&utm_campaign=yelp_api_v3&utm_medium=api_v3_business_search&utm_source=hfNVgV2lj1HFd1e19JpDfg", "review_count": 114, "categories": [{"alias": "bbq", "title": "Barbeque"}, {"alias": "sandwiches", "title": "Sandwiches"}], "rating": 2.5, "coordinates": {"latitude": 35.13744, "longitude": -90.01863}, "transactions": ["pickup", "delivery"], "price": "$", "location": {"address1": "1286 Union Ave", "address2": "", "address3": "", "city": "Memphis", "zip_code": "38104", "country": "US", "state": "TN", "display_address": ["1286 Union Ave", "Memphis, TN 38104"]}, "phone": "+19017257527", "display_phone": "(901) 725-7527", "distance": 1263.530281968799}, {"id": "UYA9S2Ho7SAujSrkaXqZ5Q", "alias": "rays-world-famous-bar-b-que-west-memphis", "name": "Ray's World Famous Bar-B Que", "image_url": "https://s3-media2.fl.yelpcdn.com/bphoto/FT9-eEBma-BMJiU9ICXxuw/o.jpg", "is_closed": false, "url": "https://www.yelp.com/biz/rays-world-famous-bar-b-que-west-memphis?adjust_creative=hfNVgV2lj1HFd1e19JpDfg&utm_campaign=yelp_api_v3&utm_medium=api_v3_business_search&utm_source=hfNVgV2lj1HFd1e19JpDfg", "review_count": 94, "categories": [{"alias": "bbq", "title": "Barbeque"}], "rating": 3.5, "coordinates": {"latitude": 35.1668105, "longitude": -90.184655}, "transactions": ["pickup", "delivery"], "price": "$$", "location": {"address1": "1905 N Missouri St", "address2": "", "address3": "", "city": "West Memphis", "zip_code": "72301", "country": "US", "state": "AR", "display_address": ["1905 N Missouri St", "West Memphis, AR 72301"]}, "phone": "+18707322044", "display_phone": "(870) 732-2044", "distance": 14580.863339646681}, {"id": "zGOJtORdG0t44ZBjWATYiQ", "alias": "roadside-bbq-proctor", "name": "Roadside Bbq", "image_url": "https://s3-media2.fl.yelpcdn.com/bphoto/C7qWc_xO4L5hkn9QKFX9EA/o.jpg", "is_closed": false, "url": "https://www.yelp.com/biz/roadside-bbq-proctor?adjust_creative=hfNVgV2lj1HFd1e19JpDfg&utm_campaign=yelp_api_v3&utm_medium=api_v3_business_search&utm_source=hfNVgV2lj1HFd1e19JpDfg", "review_count": 90, "categories": [{"alias": "bbq", "title": "Barbeque"}], "rating": 4.5, "coordinates": {"latitude": 35.1454273, "longitude": -90.2926494}, "transactions": [], "price": "$$", "location": {"address1": "196 Hwy 147 S", "address2": null, "address3": null, "city": "Proctor", "zip_code": "72376", "country": "US", "state": "AR", "display_address": ["196 Hwy 147 S", "Proctor, AR 72376"]}, "phone": "+18707339208", "display_phone": "(870) 733-9208", "distance": 23911.824786064637}, {"id": "hpbQ07sIihGkfg7EPfpBYQ", "alias": "marlowes-ribs-and-restaurant-memphis-2", "name": "Marlowe's Ribs & Restaurant", "image_url": "https://s3-media3.fl.yelpcdn.com/bphoto/5WRQRiivfyDsj2_B2RKpew/o.jpg", "is_closed": false, "url": "https://www.yelp.com/biz/marlowes-ribs-and-restaurant-memphis-2?adjust_creative=hfNVgV2lj1HFd1e19JpDfg&utm_campaign=yelp_api_v3&utm_medium=api_v3_business_search&utm_source=hfNVgV2lj1HFd1e19JpDfg", "review_count": 596, "categories": [{"alias": "bbq", "title": "Barbeque"}, {"alias": "desserts", "title": "Desserts"}, {"alias": "sandwiches", "title": "Sandwiches"}], "rating": 4.0, "coordinates": {"latitude": 35.0289828, "longitude": -90.0255627}, "transactions": ["pickup", "delivery"], "price": "$$", "location": {"address1": "4381 Elvis Presley Blvd", "address2": "", "address3": "", "city": "Memphis", "zip_code": "38116", "country": "US", "state": "TN", "display_address": ["4381 Elvis Presley Blvd", "Memphis, TN 38116"]}, "phone": "+19013324159", "display_phone": "(901) 332-4159", "distance": 11347.93196319549}, {"id": "Q4kJvD2FF0uavQiFwKJLVQ", "alias": "the-pig-on-beale-memphis", "name": "The Pig On Beale", "image_url": "https://s3-media1.fl.yelpcdn.com/bphoto/A9l9p23_8DHM_fwpaj59tg/o.jpg", "is_closed": false, "url": "https://www.yelp.com/biz/the-pig-on-beale-memphis?adjust_creative=hfNVgV2lj1HFd1e19JpDfg&utm_campaign=yelp_api_v3&utm_medium=api_v3_business_search&utm_source=hfNVgV2lj1HFd1e19JpDfg", "review_count": 497, "categories": [{"alias": "bbq", "title": "Barbeque"}], "rating": 3.0, "coordinates": {"latitude": 35.13941, "longitude": -90.05233}, "transactions": ["delivery"], "price": "$$", "location": {"address1": "167 Beale St", "address2": "", "address3": "", "city": "Memphis", "zip_code": "38103", "country": "US", "state": "TN", "display_address": ["167 Beale St", "Memphis, TN 38103"]}, "phone": "+19015291544", "display_phone": "(901) 529-1544", "distance": 2241.05319509708}, {"id": "OYLkahSo1yrwi60mJImzxQ", "alias": "bar-b-zoo-smokehouse-memphis", "name": "Bar B Zoo Smokehouse", "image_url": "https://s3-media2.fl.yelpcdn.com/bphoto/8-6SQ8m9s0RVxOIJIQZYWg/o.jpg", "is_closed": false, "url": "https://www.yelp.com/biz/bar-b-zoo-smokehouse-memphis?adjust_creative=hfNVgV2lj1HFd1e19JpDfg&utm_campaign=yelp_api_v3&utm_medium=api_v3_business_search&utm_source=hfNVgV2lj1HFd1e19JpDfg", "review_count": 1, "categories": [{"alias": "bbq", "title": "Barbeque"}], "rating": 5.0, "coordinates": {"latitude": 35.14821758032184, "longitude": -89.99502077277508}, "transactions": [], "location": {"address1": "2000 Prentiss Pl", "address2": "", "address3": null, "city": "Memphis", "zip_code": "38112", "country": "US", "state": "TN", "display_address": ["2000 Prentiss Pl", "Memphis, TN 38112"]}, "phone": "", "display_phone": "", "distance": 3730.879500365548}, {"id": "Uqy3cJHMfc4crc4gpP8ugw", "alias": "germantown-commissary-germantown", "name": "Germantown Commissary", "image_url": "https://s3-media3.fl.yelpcdn.com/bphoto/ySOToYyZMOwUslYc6sgQ1A/o.jpg", "is_closed": false, "url": "https://www.yelp.com/biz/germantown-commissary-germantown?adjust_creative=hfNVgV2lj1HFd1e19JpDfg&utm_campaign=yelp_api_v3&utm_medium=api_v3_business_search&utm_source=hfNVgV2lj1HFd1e19JpDfg", "review_count": 1152, "categories": [{"alias": "bbq", "title": "Barbeque"}, {"alias": "tradamerican", "title": "American (Traditional)"}], "rating": 4.0, "coordinates": {"latitude": 35.08646068169633, "longitude": -89.8102972}, "transactions": ["pickup", "delivery"], "price": "$$", "location": {"address1": "2290 S Germantown Rd", "address2": "", "address3": "", "city": "Germantown", "zip_code": "38138", "country": "US", "state": "TN", "display_address": ["2290 S Germantown Rd", "Germantown, TN 38138"]}, "phone": "+19017545540", "display_phone": "(901) 754-5540", "distance": 20607.46174915214}, {"id": "haE2mFLcM3PSmGtIDQatcg", "alias": "one-and-only-bbq-memphis-7", "name": "One & Only BBQ", "image_url": "https://s3-media3.fl.yelpcdn.com/bphoto/glzAY509BQjpyIseyVcZ5w/o.jpg", "is_closed": false, "url": "https://www.yelp.com/biz/one-and-only-bbq-memphis-7?adjust_creative=hfNVgV2lj1HFd1e19JpDfg&utm_campaign=yelp_api_v3&utm_medium=api_v3_business_search&utm_source=hfNVgV2lj1HFd1e19JpDfg", "review_count": 532, "categories": [{"alias": "bbq", "title": "Barbeque"}, {"alias": "sandwiches", "title": "Sandwiches"}, {"alias": "hotdog", "title": "Hot Dogs"}], "rating": 4.5, "coordinates": {"latitude": 35.10068455653, "longitude": -89.839625}, "transactions": ["pickup", "delivery"], "price": "$$", "location": {"address1": "1779 Kirby Pkwy", "address2": "Ste 1A", "address3": "", "city": "Memphis", "zip_code": "38138", "country": "US", "state": "TN", "display_address": ["1779 Kirby Pkwy", "Ste 1A", "Memphis, TN 38138"]}, "phone": "+19017513615", "display_phone": "(901) 751-3615", "distance": 17659.121211738493}, {"id": "OZjrUk-CJq7mVKPYTVfc0Q", "alias": "flying-fish-memphis-2", "name": "Flying Fish", "image_url": "https://s3-media1.fl.yelpcdn.com/bphoto/_UXk4Z-K18v-zxXuBf-J-A/o.jpg", "is_closed": false, "url": "https://www.yelp.com/biz/flying-fish-memphis-2?adjust_creative=hfNVgV2lj1HFd1e19JpDfg&utm_campaign=yelp_api_v3&utm_medium=api_v3_business_search&utm_source=hfNVgV2lj1HFd1e19JpDfg", "review_count": 546, "categories": [{"alias": "seafood", "title": "Seafood"}, {"alias": "cajun", "title": "Cajun/Creole"}, {"alias": "southern", "title": "Southern"}], "rating": 4.0, "coordinates": {"latitude": 35.1420662668398, "longitude": -90.0527831912041}, "transactions": ["delivery"], "price": "$$", "location": {"address1": "105 S 2nd St", "address2": "", "address3": "", "city": "Memphis", "zip_code": "38103", "country": "US", "state": "TN", "display_address": ["105 S 2nd St", "Memphis, TN 38103"]}, "phone": "+19015228228", "display_phone": "(901) 522-8228", "distance": 2394.9670275797935}, {"id": "t_UWaG7BMQungFcuMGgBXw", "alias": "pollard-s-bbq-memphis", "name": "Pollard\u2019s BBQ", "image_url": "https://s3-media4.fl.yelpcdn.com/bphoto/2Dn-FZSWDhnSTdVMy9VBrQ/o.jpg", "is_closed": false, "url": "https://www.yelp.com/biz/pollard-s-bbq-memphis?adjust_creative=hfNVgV2lj1HFd1e19JpDfg&utm_campaign=yelp_api_v3&utm_medium=api_v3_business_search&utm_source=hfNVgV2lj1HFd1e19JpDfg", "review_count": 115, "categories": [{"alias": "bbq", "title": "Barbeque"}], "rating": 4.5, "coordinates": {"latitude": 35.0241737365723, "longitude": -90.0246429443359}, "transactions": ["delivery"], "price": "$", "location": {"address1": "4560 Elvis Presley Blvd", "address2": "", "address3": "", "city": "Memphis", "zip_code": "38116", "country": "US", "state": "TN", "display_address": ["4560 Elvis Presley Blvd", "Memphis, TN 38116"]}, "phone": "+19013982987", "display_phone": "(901) 398-2987", "distance": 11888.945629930486}]